lat,lng,departamento,municipio,admin3,admin4
15.35450810954052,-92.0634001799163,Huehuetenango,Tectitan,Taloj,Caserio
15.35450810954052,-92.0634001799163,Huehuetenango,Tectitan,Taloj,Caserio
15.8346738133621,-89.62826439633156,Alta Verapaz,Fray Bartolome De Las Casas,Raxaja O Rashaja,Caserio
15.78324748759276,-91.7473249501137,Huehuetenango,Nenton,Tzala Chiquito,Caserio
15.848082376419852,-91.83992642543278,Huehuetenango,Nenton,La Fortuna,Finca
15.848082376419852,-91.83992642543278,Huehuetenango,Nenton,La Fortuna,Finca
16.93348550685914,-89.24696140434554,Peten,Melchor De Mencos,Santa Rosa,Caserio
17.03584750647484,-89.58165338122323,Peten,Flores,Campamento Chiclero,Otra
