lat,lng,departamento,municipio,admin3,admin4
15.055405377563153,-90.47497209643572,Baja Verapaz,Rabinal,Paxorocon O Chissalis,Caserio
15.067070771302635,-90.46529508484706,Baja Verapaz,Rabinal,Chipacapox,Caserio
15.827905361439745,-88.7696567445375,Izabal,Livingston,Poblacion Dispersa,Otra
15.815995468856315,-88.81958799221687,Izabal,Livingston,Plan Grande Tatin,Caserio
16.367505399403207,-90.24382669020835,Peten,Sayaxche,Arroyo El Quetzalito,Caserio
16.77118541793415,-89.30771986480016,Peten,Dolores,El Milagro,Finca
17.061752241819452,-89.31232966968764,Peten,Melchor De Mencos,La Coloradita,Paraje
