lat,lng,departamento,municipio,admin3,admin4
15.827624601543977,-88.94723581367501,Izabal,Livingston,Cetal,Paraje
15.803753758244582,-90.03424573568685,Alta Verapaz,Chisec,Secam,Caserio
16.055877435416736,-89.73428399396467,Peten,San Luis,Las Tres Marias,Otra
16.316459492877755,-90.2984397579423,Peten,Sayaxche,Rosa Jamaica,Caserio
16.316459492877755,-90.2984397579423,Peten,Sayaxche,Rosa Jamaica,Caserio
16.695069408636943,-89.20922375429979,Peten,Dolores,Nueva Armenia,Caserio
17.061752241819452,-89.31232966968764,Peten,Melchor De Mencos,La Coloradita,Paraje
