lat,lng,departamento,municipio,admin3,admin4
14.804342785500927,-90.27858335990369,El Progreso,Sanarate,Sinaca,Aldea
14.727912029094655,-90.69702161116032,Guatemala,San Juan Sacatepequez,San Jose Ocana,Otra
14.727912029094655,-90.69702161116032,Guatemala,San Juan Sacatepequez,San Jose Ocana,Otra
14.716001612747935,-91.53315811059491,Quetzaltenango,Zunil,El Rancho,Finca
14.473842474322122,-90.81827210363973,Sacatepequez,Alotenango,El Normal,Otra
14.473842474322122,-90.81827210363973,Sacatepequez,Alotenango,El Normal,Otra
14.405321338726964,-90.6064065776045,Escuintla,San Vicente Pacaya,San Francisco De Sales,Aldea
14.405321338726964,-90.6064065776045,Escuintla,San Vicente Pacaya,San Francisco De Sales,Aldea
14.226230747710845,-90.82499709725693,Escuintla,Masagua,El Coco,Finca
