lat,lng,departamento,municipio,admin3,admin4
14.727912029094655,-90.69702161116032,Guatemala,San Juan Sacatepequez,San Jose Ocana,Otra
14.77331479727794,-91.5550714680634,Quetzaltenango,Quetzaltenango,Chuipach,Otra
14.77331479727794,-91.5550714680634,Quetzaltenango,Quetzaltenango,Chuipach,Otra
14.473842474322122,-90.81827210363973,Sacatepequez,Alotenango,El Normal,Otra
14.473842474322122,-90.81827210363973,Sacatepequez,Alotenango,El Normal,Otra
14.526798797234845,-90.90628820466613,Chimaltenango,Acatenango,El Tesoro,Caserio
14.405321338726964,-90.6064065776045,Escuintla,San Vicente Pacaya,San Francisco De Sales,Aldea
