lat,lng,departamento,municipio,admin3,admin4
14.32019778984146,-89.98536397852052,Jutiapa,Jutiapa,El Aguacate,Caserio
14.850588759983813,-89.40055594512994,Chiquimula,Jocotan,Encuentros De Guaraquiche,Aldea
15.604543934170968,-88.94131325177865,Izabal,Livingston,Las Vegas,Hacienda
15.745198239883798,-89.94259563211087,Alta Verapaz,Fray Bartolome De Las Casas,Salaguna,Finca
16.041606528834798,-89.28080932931574,Peten,San Luis,Sin Nombre 1,Parcelamiento
16.575999244933495,-89.27884645895026,Peten,Dolores,La Nueva Union O Nueva Union El Cabro,Parcelamiento
16.79626124631514,-89.52452558786102,Peten,Santa Ana,La Loca,Finca
17.289855759727683,-89.9629693088046,Peten,San Andres,La Palotada,Otra
