lat,lng,departamento,municipio,admin3,admin4
14.064613359877713,-90.35397432447189,Santa Rosa,Chiquimulilla,San Antonio Los Tamarindos,Finca
14.064613359877713,-90.35397432447189,Santa Rosa,Chiquimulilla,San Antonio Los Tamarindos,Finca
14.979076020394277,-89.70720888507302,Zacapa,Teculutan,La Providencia,Finca
15.740932226984132,-89.50640846762475,Alta Verapaz,Chahal,Sepur Seboc,Caserio
15.763289197120997,-89.96734089067645,Alta Verapaz,Chisec,Semax,Caserio
15.74420957315794,-90.35760815532893,Alta Verapaz,Coban,Chinaboquil,Aldea
