lat,lng,departamento,municipio,admin3,admin4
14.816622941731774,-90.28629593167534,El Progreso,Sanarate,San Miguel Rio Abajo,Finca
14.77331479727794,-91.5550714680634,Quetzaltenango,Quetzaltenango,Chuipach,Otra
14.699289802466105,-91.56956901877453,Quetzaltenango,El Palmar,San Jose,Finca
14.489384502171669,-90.61768635965753,Guatemala,Amatitlan,Colonia Las Ninfas,Ciudad
14.405321338726964,-90.6064065776045,Escuintla,San Vicente Pacaya,San Francisco De Sales,Aldea
14.405321338726964,-90.6064065776045,Escuintla,San Vicente Pacaya,San Francisco De Sales,Aldea
14.405321338726964,-90.6064065776045,Escuintla,San Vicente Pacaya,San Francisco De Sales,Aldea
14.405321338726964,-90.6064065776045,Escuintla,San Vicente Pacaya,San Francisco De Sales,Aldea
14.365723746250875,-91.92863053616735,Retalhuleu,Champerico,Mapahuite,Finca
