lat,lng,departamento,municipio,admin3,admin4
14.526798797234845,-90.90628820466613,Chimaltenango,Acatenango,El Tesoro,Caserio
16.807440098763223,-89.37383964302988,Peten,Dolores,Ucanal Dos,Otra
13.994140433780906,-90.22712810720607,Jutiapa,Pasaco,La Estancia,Caserio
14.013066282798004,-90.25371979653619,Santa Rosa,Oratorio,Santo Domingo,Finca
13.994140433780906,-90.22712810720607,Jutiapa,Pasaco,La Estancia,Caserio
14.013066282798004,-90.25371979653619,Santa Rosa,Oratorio,Santo Domingo,Finca
14.06628659015896,-90.26676857967102,Santa Rosa,San Juan Tecuaco,Hitagual,Caserio
14.057372125044209,-90.25198252370102,Santa Rosa,San Juan Tecuaco,Cebadilla,Caserio
