lat,lng,departamento,municipio,admin3,admin4
16.946869595900992,-89.53614691079206,Peten,Flores,Manantial,Otra
13.930247010633261,-90.4770491896633,Santa Rosa,Taxisco,La Proteccion,Finca
15.546318777958064,-88.91023651491582,Izabal,Morales,Villa Florita,Hacienda
15.546318777958064,-88.91023651491582,Izabal,Morales,Villa Florita,Hacienda
15.757639698900743,-89.46450757429857,Izabal,Livingston,El Nacimiento,Caserio
15.928738632911736,-89.48211028917922,Peten,San Luis,El Recuerdo,Finca
