lat,lng,departamento,municipio,admin3,admin4
14.405321338726964,-90.6064065776045,Escuintla,San Vicente Pacaya,San Francisco De Sales,Aldea
14.405321338726964,-90.6064065776045,Escuintla,San Vicente Pacaya,San Francisco De Sales,Aldea
14.99668517877297,-89.61516806202528,Zacapa,Estanzuela,El Guayabal,Paraje
15.10258510947119,-92.01649011967851,San Marcos,Sibinal,Suchiate,Caserio
15.10258510947119,-92.01649011967851,San Marcos,Sibinal,Suchiate,Caserio
16.32600871924389,-89.83232685435918,Peten,Poptun,San Jose,Caserio
16.807440098763223,-89.37383964302988,Peten,Dolores,Ucanal Dos,Otra
16.807440098763223,-89.37383964302988,Peten,Dolores,Ucanal Dos,Otra
