lat,lng,departamento,municipio,admin3,admin4
14.235195851107049,-90.80428612602861,Escuintla,Escuintla,La Ceiba,Finca
14.269410040099302,-91.33812321780049,Escuintla,Tiquisate,La Flora,Finca
14.28709426804198,-91.68110790356813,Suchitepequez,Cuyotenango,La Ilusiones,Labor
14.28709426804198,-91.68110790356813,Suchitepequez,Cuyotenango,La Ilusiones,Labor
14.28709426804198,-91.68110790356813,Suchitepequez,Cuyotenango,La Ilusiones,Labor
14.43325590557564,-90.9354287796822,Chimaltenango,Yepocapa,San Francisco Panimache,Finca
14.6882768755812,-92.05408886239623,Quetzaltenango,Coatepeque,El Crucero,Otra
