lat,lng,departamento,municipio,admin3,admin4
13.98039118130557,-91.3409415095555,Escuintla,Nueva Concepcion,San Jose El Flor,Caserio
13.98039118130557,-91.3409415095555,Escuintla,Nueva Concepcion,San Jose El Flor,Caserio
14.924766342063373,-89.86588831345122,El Progreso,San Cristobal Acasaguastlan,Piedras Negras,Finca
15.013622554415099,-89.58287235569337,Zacapa,Estanzuela,Los Yajes,Finca
15.013622554415099,-89.58287235569337,Zacapa,Estanzuela,Los Yajes,Finca
15.207401006982797,-89.25060224218751,Zacapa,Gualan,Dona Maria,Caserio
15.136548713088025,-90.85937003027321,Quiche,Canilla,Pasuch,Paraje
15.429141391705338,-89.62455915805519,Alta Verapaz,Panzos,Santa Elisa,Finca
