lat,lng,departamento,municipio,admin3,admin4
16.767165174006397,-89.78914724345772,Peten,Santa Ana,Santa Rosa 2,Paraje
16.302339426683652,-89.40957219579526,Peten,Poptun,Zepeda,Otra
14.699289802466105,-91.56956901877453,Quetzaltenango,El Palmar,San Jose,Finca
14.526798797234845,-90.90628820466613,Chimaltenango,Acatenango,El Tesoro,Caserio
14.445780174970382,-90.94697450167511,Chimaltenango,Yepocapa,Panimache Ii,Caserio
14.526798797234845,-90.90628820466613,Chimaltenango,Acatenango,El Tesoro,Caserio
14.526798797234845,-90.90628820466613,Chimaltenango,Acatenango,El Tesoro,Caserio
14.43325590557564,-90.9354287796822,Chimaltenango,Yepocapa,San Francisco Panimache,Finca
14.526798797234845,-90.90628820466613,Chimaltenango,Acatenango,El Tesoro,Caserio
