lat,lng,departamento,municipio,admin3,admin4
14.724436946879196,-91.61578439263016,Quetzaltenango,El Palmar,Monte Bello,Finca
14.716001612747935,-91.53315811059491,Quetzaltenango,Zunil,El Rancho,Finca
14.716001612747935,-91.53315811059491,Quetzaltenango,Zunil,El Rancho,Finca
16.740389472966903,-89.24517274891157,Peten,Dolores,El Triunfo,Finca
14.77331479727794,-91.5550714680634,Quetzaltenango,Quetzaltenango,Chuipach,Otra
14.526798797234845,-90.90628820466613,Chimaltenango,Acatenango,El Tesoro,Caserio
14.473842474322122,-90.81827210363973,Sacatepequez,Alotenango,El Normal,Otra
