lat,lng,departamento,municipio,admin3,admin4
14.462615688357456,-89.7030082393728,Jutiapa,Santa Catarina Mita,Los Sandovales,Caserio
14.564959279212667,-89.65241849740502,Chiquimula,Ipala,Chaguiton,Caserio
14.228883809098255,-91.70457704511723,Suchitepequez,Cuyotenango,Miralinda,Labor
14.411172512257007,-91.98012714295704,Retalhuleu,Retalhuleu,El Calvario,Finca
15.702505818580905,-89.06693834110659,Izabal,Livingston,Las Nubes,Finca
16.581064197517982,-90.0764767553729,Peten,San Francisco,Sin Nombre,Finca
16.659097222490857,-90.04162446669454,Peten,San Francisco,Hacienda El Guacul,Otra
16.896857544414495,-89.93161338017364,Peten,San Benito,Las 3 S,Finca
17.32679135508761,-90.022152253537,Peten,San Andres,El Corozal,Caserio
