lat,lng,departamento,municipio,admin3,admin4
15.39985780702482,-91.84696591654797,Huehuetenango,Ixtahuacan,Agua Caliente,Caserio
14.816622941731774,-90.28629593167534,El Progreso,Sanarate,San Miguel Rio Abajo,Finca
14.676516382443038,-91.69614407949368,Retalhuleu,Nuevo San Carlos,El Encanto Xolhuitz,Finca
14.473842474322122,-90.81827210363973,Sacatepequez,Alotenango,El Normal,Otra
14.473842474322122,-90.81827210363973,Sacatepequez,Alotenango,El Normal,Otra
14.405321338726964,-90.6064065776045,Escuintla,San Vicente Pacaya,San Francisco De Sales,Aldea
14.405321338726964,-90.6064065776045,Escuintla,San Vicente Pacaya,San Francisco De Sales,Aldea
14.405321338726964,-90.6064065776045,Escuintla,San Vicente Pacaya,San Francisco De Sales,Aldea
14.405321338726964,-90.6064065776045,Escuintla,San Vicente Pacaya,San Francisco De Sales,Aldea
