lat,lng,departamento,municipio,admin3,admin4
14.772567287509347,-89.28615433877007,Chiquimula,Jocotan,El Limar Tontoles,Caserio
14.809194971496694,-90.07941698097545,El Progreso,Guastatoya,La Cruz,Otra
14.809732901332412,-90.0693907963991,El Progreso,Guastatoya,Conacaste,Otra
14.809194971496694,-90.07941698097545,El Progreso,Guastatoya,La Cruz,Otra
14.587418930727058,-92.07932318318608,San Marcos,Ocos,El Izotal,Finca
16.749055278635517,-90.1567573358079,Peten,La Libertad,Maria Ernestina,Otra
17.02751536274652,-89.27088824638892,Peten,Melchor De Mencos,Tziquin Tzacan,Caserio
